{
  "bulten":{
    "name" : "Café Bulten",
    "host" : "Café Bulten",
    "location" : "M-huset",
    "address" : "Hörsalsvägen 7, 412 58 Göteborg",
    "openingHours" : "18 - 01",
    "paymentTypes" : ["SU-card", "Card"],
    "filter" : ["wine", "food"],
    "id": "bulten",
    "coordinates" : [57.688970, 11.978690]
  },

  "japripps":{
    "name" : "J.A. Pripps",
    "host" : "J.A. Pripps",
    "location" : "Kårhuset",
    "address" : "Sven Hultins gata 4, 412 58 Göteborg",
    "openingHours" : "15 - 01",
    "paymentTypes" : ["SU-card", "Card"],
    "filter" : ["drinks"],
    "id": "japripps",
    "coordinates" : [57.688740, 11.974630]
  },

  "wijkanders":{
    "name" : "Wijkanders",
    "host" : "Wijkanders",
    "location" : "Vasa Hus 8",
    "address" : "Vera Sandbergs allé 5B, 411 33 Göteborg",
    "openingHours" : "15 - 22",
    "paymentTypes" : ["SU-card", "Card"],
    "filter" : ["beer"],
    "id": "wijkanders",
    "coordinates" : [57.692588, 11.975321]
  },

  "gasquen":{
    "name" : "Gasquen",
    "host" : "GasqueK",
    "location" : "Kårhuset",
    "address" : "Teknologplatsen 6, 412 58 Göteborg",
    "openingHours" : "20 - 01",
    "paymentTypes" : ["SU-card", "Card"],
    "filter" : [""],
    "id": "gasquen",
    "coordinates": [57.688650, 11.975160]
  },

  "cafec":{
    "name" : "Café C",
    "host" : "C",
    "location" : "Navet (Lindholmen)",
    "address" : "Lindholmspiren 5, 417 55 Göteborg",
    "openingHours" : "15 - 19",
    "paymentTypes" : ["SU-card", "Card"],
    "filter" : [""],
    "id": "cafec",
    "coordinates" : [57.707149, 11.940027]
  },

  "11an":{
    "name" : "11:an",
    "host" : "Pubf",
    "location" : "Svea (Lindholmen)",
    "address" : "Forskningsgången 4, 417 56 Göteborg",
    "openingHours" : "15 - 20",
    "paymentTypes" : "Card",
    "filter" : [""],
    "id": "11an",
    "coordinates" : [57.706218, 11.936804]
  },

  "rodarummet":{
    "name" : "Röda Rummet",
    "host" : "PubA",
    "location" : "Biblioteket",
    "address" : "Sven Hultins gata 6, 412 58 Göteborg",
    "openingHours" : "19 - 03",
    "paymentTypes" : "Card",
    "filter" : [""],
    "id": "rodarummet",
    "coordinates" : [57.687510, 11.976563]
  },

  "verum":{
    "name" : "V-entrén",
    "host" : "SNOK",
    "location" : "Samhällsbyggnad III",
    "address" : "Sven Hultins gata 6, 412 58 Göteborg",
    "openingHours" : "19 - 03",
    "paymentTypes" : "Card",
    "filter" : [""],
    "id": "verum",
    "coordinates": [57.687560, 11.976763]
  },

  "basen":{
    "name" : "Basen",
    "host" : "Delta",
    "location" : "EDIT",
    "address" : "Rännvägen 6b, 412 58 Göteborg",
    "openingHours" : "19 - 01",
    "paymentTypes" : "Card",
    "filter" : [""],
    "id": "basen",
    "coordinates": [57.687480, 11.978640]
  },

  "goldeni":{
    "name" : "Golden-I",
    "host" : "QQ7",
    "location" : "Vasa Hus 2",
    "address" : "Vera Sandbergs allé 8A, 411 33 Göteborg",
    "openingHours" : "19 - 03",
    "paymentTypes" : "Cash",
    "filter" : [""],
    "id": "goldeni",
    "coordinates" : [57.692902, 11.975156]
  },

  "kajsabaren":{
    "name" : "Kajsabaren",
    "host" : "Kajsabaren",
    "location" : "EDIT",
    "address" : "Maskingränd 2, 412 58 Göteborg",
    "openingHours" : "17 - 01",
    "paymentTypes" : ["Cash", "Card"],
    "filter" : [""],
    "id": "kajsabaren",
    "coordinates": [57.688210, 11.978730]
  },

  "focus":{
    "name" : "Focus",
    "host" : "Djungelpatrullen",
    "location" : "Forskarhuset Fysik",
    "address" : "Kemivägen 11, 411 33 Göteborg",
    "openingHours" : "19 - 03",
    "paymentTypes" : "Cash",
    "filter" : [""],
    "id": "focus",
    "coordinates" : [57.691053, 11.975531]
  },

  "hubben21":{
    "name" : "Hubben 2.1",
    "host" : "P.R.I.T.",
    "location" : "EDIT",
    "address" : "Hörsalsvägen 9, 412 58 Göteborg",
    "openingHours" : "17 - 02",
    "paymentTypes" : "Card",
    "filter" : [""],
    "id" : "hubben21",
    "coordinates" : [57.688330, 11.979270]
  },

  "fortnox":{
    "name" : "Fort NOx",
    "host" : "Häks",
    "location" : "Kemi",
    "address" : "",
    "openingHours" : "19 - 01",
    "paymentTypes" : "Card",
    "filter" : [""],
    "id": "fortnox",
    "coordinates" : [57.691039, 11.978209]
  },

  "gastownospritkoket":{
    "name" : "Gastown & Spritköket",
    "host" : "Kaos",
    "location" : "Kemi",
    "address" : "",
    "openingHours" : "19 - 01",
    "paymentTypes" : "Card",
    "filter" : [""],
    "id" : "gastownospritkoket",
    "coordinates" : [57.691113, 11.978331]
  },

  "winden":{
    "name" : "Winden",
    "host" : "Rustmästeriet",
    "location" : "Gamla M-huset",
    "address" : "Hörsalsvägen 5, 412 58 Göteborg",
    "openingHours" : "19 - 03",
    "paymentTypes" : ["Cash", "Card"],
    "filter" : [""],
    "id" : "winden",
    "coordinates" : [57.689552, 11.978064]
  },

  "tagvagnen":{
    "name" : "Tågvagnen",
    "host" : "prosex.",
    "location" : "Tågvagnen",
    "address" : "Sven Hultins gata 4, 412 58 Göteborg", 
    "openingHours" : "18 - 01",
    "paymentTypes" : ["Cash", "Card"],
    "filter" : [""],
    "id" : "tagvagnen",
    "coordinates": [57.688282, 11.975849]
  },

  "zaloonen":{
    "name" : "Zaloonen",
    "host" : "Zexet",
    "location" : "Hörsalar HB",
    "address" : "Gibraltarvallsvägen 3, 412 58 Göteborg",
    "openingHours" : "19 - 01",
    "paymentTypes" : "Card",
    "filter" : [""],
    "id" : "zaloonen",
    "coordinates": [57.689081, 11.979204]
  },

  "pignwhistle":{
    "name" : "Pig 'n' Whistle",
    "host" : "Pig 'n' Whistle",
    "location" : "Emilsborg 2",
    "address" : "Gibraltargatan 80, 412 79 Göteborg",
    "openingHours" : "16 - 01",
    "paymentTypes" : ["Cash", "Card"],
    "filter" : [""],
    "id" : "pignwhistle",
    "coordinates" : [null, null]
  }
}